{"type":"FeatureCollection", "features": [
{"type":"Feature","geometry":{"type":"Point","coordinates":[-4.4753215,36.6796291,0]},"properties":{"name":"La Rebanadilla","ubicación":"Entorno del aeropuerto","tipo":"Fenicio","epoca":"Siglos X y IX a.C.","img":"rebanadilla"}},
{"type":"Feature","geometry":{"type":"Point","coordinates":[-4.4830232,36.6763671,0]},"properties":{"name":"Cortijo de San Isidro","ubicación":"Entorno del aeropuerto","tipo":"Fenicio","epoca":"Siglos IX-VIII a.C.","img":"sanisidro"}},
{"type":"Feature","geometry":{"type":"Point","coordinates":[-4.428105,36.7232317,0]},"properties":{"name":"San Pablo","ubicación":"Barrio de La Trinidad (Málaga)","tipo":"Indígena","epoca":"Siglos IX-VIII a.C.","img":"sanpablo"}},
{"type":"Feature","geometry":{"type":"Point","coordinates":[-4.523297,36.5986323,0]},"properties":{"name":"Cerro de la Era","ubicación":"Benalmádena","tipo":"Indígena","epoca":"Siglo IX-VIII a.C.","img":"cerroera"}},
{"type":"Feature","geometry":{"type":"Point","coordinates":[-4.4644382,36.6729502,0]},"properties":{"name":"Cerro del Villar","ubicación":"Desembocadura del Guadalhorce","tipo":"Fenicio","epoca":"Siglos VIII y VI a.C.","img":"cerrovillar"}},
{"type":"Feature","geometry":{"type":"Point","coordinates":[-4.6312819,36.7094338,0]},"properties":{"name":"Plaza del Pilar Alto","ubicación":"Cártama","tipo":"Indígena","epoca":"Siglo VIII a.C.","img":"pilaralto"}},
{"type":"Feature","geometry":{"type":"Point","coordinates":[-4.5882365,36.6574674,0]},"properties":{"name":"Taralpe Alto","ubicación":"Alhaurín de la Torre","tipo":"Indígena","epoca":"Siglo VIII a.C","img":"taralpe"}},
{"type":"Feature","geometry":{"type":"Point","coordinates":[-4.4144794,36.7217847,0]},"properties":{"name":"Malaka","ubicación":"Málaga","tipo":"Fenicio","epoca":"Siglos VII-VI a.C.","img":"malaka"}}
]}